{
  "_meta": {
    "descripcion": "Datos semilla realistas del estado La Guaira (Vargas), Venezuela, para SOSVEN. Adaptado al MODELO DE DATOS del contrato (campos y enums exactos confirmados por Enzo). Coordenadas reales aproximadas por zona. Centro del mapa: lat 10.6010, lng -66.9340.",
    "autor": "Fiona",
    "generado": "2026-06-25",
    "version_contrato": "2 (adaptado a enums del backend)",
    "enums": {
      "personas.tipo": ["busco", "reporto"],
      "personas.estado": ["desaparecido", "a_salvo", "herido", "visto_con_vida", "fallecido", "desconocido"],
      "atrapados.estado": ["atrapado", "en_rescate", "rescatado", "fallecido"],
      "edificios.estado": ["colapsado", "dano_grave", "atrapados", "en_rescate", "evacuado_ok"]
    }
  },

  "personas": [
    { "tipo": "reporto", "nombre": "Maria Gonzalez", "edad": 34, "descripcion": "Se encuentra a salvo con su familia en el refugio del estadio.", "foto_url": null, "estado": "a_salvo", "lat": 10.6118, "lng": -66.8502, "direccion": "Urb. Los Corales, calle 3, Caraballeda", "edificio": "Residencias Los Corales Torre A", "piso": "4", "contacto_nombre": "Jose Gonzalez", "contacto_telefono": "+584141234567" },
    { "tipo": "reporto", "nombre": "Jose Rodriguez", "edad": 58, "descripcion": "Herido en una pierna, atendido en ambulatorio. Estable.", "foto_url": null, "estado": "herido", "lat": 10.6131, "lng": -66.8488, "direccion": "Tanaguarena, sector La Playa, Caraballeda", "edificio": "Edificio Tanaguarena", "piso": "2", "contacto_nombre": "Carmen Rodriguez", "contacto_telefono": "+584249876543" },
    { "tipo": "reporto", "nombre": "Carmen Perez", "edad": 27, "descripcion": "Evacuada de su vivienda, ahora a salvo en casa de familiares.", "foto_url": null, "estado": "a_salvo", "lat": 10.6090, "lng": -66.8875, "direccion": "Av. La Playa, Macuto", "edificio": "", "piso": "", "contacto_nombre": "Luisa Perez", "contacto_telefono": "+584125558899" },
    { "tipo": "reporto", "nombre": "Luis Martinez", "edad": 41, "descripcion": "A salvo junto a su grupo familiar de cinco personas.", "foto_url": null, "estado": "a_salvo", "lat": 10.6021, "lng": -66.9305, "direccion": "Casco historico, calle Bolivar, La Guaira", "edificio": "", "piso": "", "contacto_nombre": "Ana Martinez", "contacto_telefono": "+584161112233" },
    { "tipo": "busco", "nombre": "Ana Hernandez", "edad": 22, "descripcion": "Desaparecida desde la madrugada, no responde el telefono. Vestia chaqueta azul.", "foto_url": null, "estado": "desaparecido", "lat": 10.6012, "lng": -67.0340, "direccion": "Av. Atlantida, Catia La Mar", "edificio": "Residencia Playa Verde", "piso": "3", "contacto_nombre": "Marisol Hernandez", "contacto_telefono": "+584144455667" },
    { "tipo": "reporto", "nombre": "Pedro Garcia", "edad": 63, "descripcion": "Evacuado del sector, a salvo en el refugio de Maiquetia.", "foto_url": null, "estado": "a_salvo", "lat": 10.6005, "lng": -66.9931, "direccion": "Av. Principal de Maiquetia", "edificio": "", "piso": "", "contacto_nombre": "Rafael Garcia", "contacto_telefono": "+584267778899" },
    { "tipo": "reporto", "nombre": "Rosa Diaz", "edad": 38, "descripcion": "A salvo con sus seis familiares, vivienda sin danos graves.", "foto_url": null, "estado": "a_salvo", "lat": 10.6079, "lng": -66.8893, "direccion": "Camuri Chico, Macuto", "edificio": "", "piso": "", "contacto_nombre": "Pedro Diaz", "contacto_telefono": "+584149998877" },
    { "tipo": "reporto", "nombre": "Carlos Sanchez", "edad": 45, "descripcion": "Herido leve por escombros, ya atendido. Buscando a su hermano.", "foto_url": null, "estado": "herido", "lat": 10.6125, "lng": -66.8479, "direccion": "Urb. Los Corales, calle 5, Caraballeda", "edificio": "Residencias Los Corales Torre B", "piso": "1", "contacto_nombre": "Elena Sanchez", "contacto_telefono": "+584122223344" },
    { "tipo": "reporto", "nombre": "Yelitza Romero", "edad": 29, "descripcion": "Vista con vida saliendo del sector hacia el refugio. Confirmada a salvo luego.", "foto_url": null, "estado": "visto_con_vida", "lat": 10.5998, "lng": -67.0321, "direccion": "Playa Verde, Catia La Mar", "edificio": "", "piso": "", "contacto_nombre": "Douglas Romero", "contacto_telefono": "+584246665544" },
    { "tipo": "busco", "nombre": "Miguel Torres", "edad": 52, "descripcion": "Desaparecido, salio a buscar a su madre y no regreso. Sin noticias.", "foto_url": null, "estado": "desaparecido", "lat": 10.6009, "lng": -66.9322, "direccion": "Av. Soublette, La Guaira centro", "edificio": "", "piso": "", "contacto_nombre": "Sofia Torres", "contacto_telefono": "+584143334455" },
    { "tipo": "reporto", "nombre": "Gabriela Flores", "edad": 19, "descripcion": "A salvo, ayudando como voluntaria en el centro de acopio.", "foto_url": null, "estado": "a_salvo", "lat": 10.6018, "lng": -66.9905, "direccion": "Las Tunitas, Maiquetia", "edificio": "", "piso": "", "contacto_nombre": "Hilda Flores", "contacto_telefono": "+584167776655" },
    { "tipo": "reporto", "nombre": "Francisco Rivas", "edad": 70, "descripcion": "Adulto mayor herido, rescatado de su vivienda. En observacion.", "foto_url": null, "estado": "herido", "lat": 10.6095, "lng": -66.8866, "direccion": "Av. La Playa, edificio frente al malecon, Macuto", "edificio": "Edificio Mar Azul", "piso": "5", "contacto_nombre": "Teresa Rivas", "contacto_telefono": "+584125551212" },
    { "tipo": "reporto", "nombre": "Daniela Castillo", "edad": 31, "descripcion": "Evacuada con su familia, a salvo en zona alta.", "foto_url": null, "estado": "a_salvo", "lat": 10.6109, "lng": -66.8515, "direccion": "Tanaguarena, calle principal, Caraballeda", "edificio": "", "piso": "", "contacto_nombre": "Jesus Castillo", "contacto_telefono": "+584249871234" },
    { "tipo": "busco", "nombre": "Ramon Vargas", "edad": 47, "descripcion": "Sin contacto desde la noche del evento. Ultima vez visto cerca del comercio que colapso.", "foto_url": null, "estado": "desconocido", "lat": 10.6020, "lng": -67.0350, "direccion": "Av. Atlantida con calle 8, Catia La Mar", "edificio": "", "piso": "", "contacto_nombre": "Norma Vargas", "contacto_telefono": "+584148889900" },
    { "tipo": "reporto", "nombre": "Eduardo Mendoza", "edad": 36, "descripcion": "Herido moderado, atrapado y luego rescatado. En el hospital Vargas.", "foto_url": null, "estado": "herido", "lat": 10.6025, "lng": -66.9298, "direccion": "Casco historico, calle Real, La Guaira centro", "edificio": "", "piso": "", "contacto_nombre": "Patricia Mendoza", "contacto_telefono": "+584262223333" },
    { "tipo": "busco", "nombre": "Maria Gabriela Rojas", "edad": 28, "descripcion": "Desaparecida tras el deslave en Los Corales. Su familia la busca, no responde el telefono. Vestia franela blanca.", "foto_url": null, "estado": "desaparecido", "lat": 10.6120, "lng": -66.8500, "direccion": "Urb. Los Corales, calle 6, Caraballeda", "edificio": "Residencias Los Corales Torre A", "piso": "5", "contacto_nombre": "Pedro Rojas (hermano)", "contacto_telefono": "+584141239900" },
    { "tipo": "reporto", "nombre": "Maria Gabriela Rojas", "edad": 28, "descripcion": "ENCONTRADA: se encuentra A SALVO en el refugio del estadio, fue evacuada del sector Los Corales por la brigada de rescate.", "foto_url": null, "estado": "a_salvo", "lat": 10.6135, "lng": -66.8485, "direccion": "Refugio Estadio Jose Antonio Casanova, Caraballeda (evacuada de Los Corales)", "edificio": "", "piso": "", "contacto_nombre": "Brigada de rescate", "contacto_telefono": "+582123334455" }
  ],

  "atrapados": [
    { "cantidad_personas": 4, "edificio": "Vivienda particular", "piso": "1", "lat": 10.6127, "lng": -66.8491, "direccion": "Urb. Los Corales, calle 4, Caraballeda", "estado": "en_rescate", "descripcion": "Familia atrapada en vivienda sepultada parcialmente por lodo en Los Corales.", "foto_url": null, "contacto": "Maria Gonzalez - +584141234567" },
    { "cantidad_personas": 2, "edificio": "", "piso": "", "lat": 10.6083, "lng": -66.8879, "direccion": "Av. La Playa, Macuto", "estado": "atrapado", "descripcion": "Dos adultos mayores atrapados bajo escombros de una pared colapsada.", "foto_url": null, "contacto": "Rosa Diaz - +584149998877" },
    { "cantidad_personas": 1, "edificio": "Vivienda particular", "piso": "2", "lat": 10.6008, "lng": -67.0338, "direccion": "Av. Atlantida, Catia La Mar", "estado": "atrapado", "descripcion": "Persona en el techo de su vivienda, rodeada por la crecida de la quebrada.", "foto_url": null, "contacto": "Yelitza Romero - +584246665544" },
    { "cantidad_personas": 1, "edificio": "", "piso": "", "lat": 10.5995, "lng": -66.9945, "direccion": "Autopista Caracas-La Guaira, sector Maiquetia", "estado": "en_rescate", "descripcion": "Conductor atrapado en un vehiculo arrastrado por la corriente en la autopista.", "foto_url": null, "contacto": "Pedro Garcia - +584267778899" },
    { "cantidad_personas": 6, "edificio": "Residencias Los Corales Torre B", "piso": "1", "lat": 10.6115, "lng": -66.8506, "direccion": "Urb. Los Corales, calle 5, Caraballeda", "estado": "atrapado", "descripcion": "Grupo de vecinos atrapados en el primer piso de un edificio con el acceso bloqueado.", "foto_url": null, "contacto": "Carlos Sanchez - +584122223344" },
    { "cantidad_personas": 2, "edificio": "Vivienda particular", "piso": "1", "lat": 10.6092, "lng": -66.8870, "direccion": "Camuri Chico, Macuto", "estado": "en_rescate", "descripcion": "Un nino y un adulto atrapados, el lodo bloquea la unica salida.", "foto_url": null, "contacto": "Francisco Rivas - +584125551212" },
    { "cantidad_personas": 3, "edificio": "Vivienda particular", "piso": "2", "lat": 10.6014, "lng": -66.9318, "direccion": "Casco historico, calle Bolivar, La Guaira centro", "estado": "atrapado", "descripcion": "Tres personas refugiadas en el segundo piso, el agua sube en planta baja.", "foto_url": null, "contacto": "Luis Martinez - +584161112233" },
    { "cantidad_personas": 1, "edificio": "Local comercial", "piso": "1", "lat": 10.6015, "lng": -67.0328, "direccion": "Av. Atlantida con calle 8, Catia La Mar", "estado": "rescatado", "descripcion": "Persona herida que estaba atrapada bajo el techo colapsado de un comercio. Ya rescatada.", "foto_url": null, "contacto": "Ramon Vargas - +584148889900" },
    { "cantidad_personas": 5, "edificio": "", "piso": "", "lat": 10.6133, "lng": -66.8472, "direccion": "Tanaguarena, calle principal, Caraballeda", "estado": "atrapado", "descripcion": "Familia numerosa aislada por un deslizamiento que cerro la unica via de acceso.", "foto_url": null, "contacto": "Daniela Castillo - +584249871234" },
    { "cantidad_personas": 2, "edificio": "", "piso": "", "lat": 10.6022, "lng": -66.9912, "direccion": "Terminal de Maiquetia", "estado": "en_rescate", "descripcion": "Dos personas atrapadas en un autobus volcado cerca del terminal.", "foto_url": null, "contacto": "Gabriela Flores - +584167776655" },
    { "cantidad_personas": 1, "edificio": "Vivienda particular", "piso": "1", "lat": 10.6028, "lng": -66.9292, "direccion": "Casco historico, calle Real, La Guaira centro", "estado": "atrapado", "descripcion": "Adulto mayor solo, no puede caminar, con agua en la planta baja.", "foto_url": null, "contacto": "Eduardo Mendoza - +584262223333" },
    { "cantidad_personas": 4, "edificio": "Estacionamiento", "piso": "Sotano", "lat": 10.6075, "lng": -66.8888, "direccion": "Av. La Playa, centro comercial de Macuto", "estado": "atrapado", "descripcion": "Cuatro personas atrapadas en el sotano de un estacionamiento.", "foto_url": null, "contacto": "Carmen Perez - +584125558899" }
  ],

  "edificios": [
    { "nombre": "Residencias Los Corales Torre B", "lat": 10.6120, "lng": -66.8498, "direccion": "Urb. Los Corales, calle 5, Caraballeda", "estado": "colapsado", "atrapados_estimados": 8, "descripcion": "Edificio residencial de 6 pisos colapsado parcialmente por el deslave. Se estiman personas atrapadas en plantas bajas.", "foto_url": null },
    { "nombre": "Edificio Tanaguarena", "lat": 10.6135, "lng": -66.8465, "direccion": "Tanaguarena, frente al malecon, Caraballeda", "estado": "evacuado_ok", "atrapados_estimados": 0, "descripcion": "Edificio residencial evacuado con exito antes de que subiera el nivel del lodo. Sin atrapados.", "foto_url": null },
    { "nombre": "Ambulatorio Caraballeda", "lat": 10.6116, "lng": -66.8510, "direccion": "Av. Principal de Caraballeda", "estado": "dano_grave", "atrapados_estimados": 0, "descripcion": "Centro de salud con dano estructural grave, planta baja inundada. Operatividad reducida.", "foto_url": null },
    { "nombre": "Residencia Playa Verde", "lat": 10.5998, "lng": -67.0325, "direccion": "Playa Verde, Catia La Mar", "estado": "atrapados", "atrapados_estimados": 3, "descripcion": "Edificio con acceso bloqueado por escombros, se reportan vecinos atrapados en pisos superiores.", "foto_url": null },
    { "nombre": "Edificio Mar Azul", "lat": 10.6095, "lng": -66.8866, "direccion": "Av. La Playa, frente al malecon, Macuto", "estado": "en_rescate", "atrapados_estimados": 2, "descripcion": "Operativo de rescate en curso en planta baja del edificio residencial.", "foto_url": null },
    { "nombre": "Conjunto Residencial Camuri Chico", "lat": 10.6080, "lng": -66.8897, "direccion": "Camuri Chico, Macuto", "estado": "dano_grave", "atrapados_estimados": 0, "descripcion": "Muros perimetrales colapsados y fachada comprometida. Evacuacion preventiva en curso.", "foto_url": null },
    { "nombre": "Edificio Av. Soublette", "lat": 10.6010, "lng": -66.9322, "direccion": "Av. Soublette, La Guaira centro", "estado": "evacuado_ok", "atrapados_estimados": 0, "descripcion": "Edificio de oficinas evacuado correctamente, sin personas en su interior.", "foto_url": null },
    { "nombre": "Galpon Av. Atlantida", "lat": 10.6015, "lng": -67.0332, "direccion": "Av. Atlantida con calle 8, Catia La Mar", "estado": "colapsado", "atrapados_estimados": 1, "descripcion": "Galpon comercial colapsado sobre la via. Se reporta una persona atrapada (ya rescatada en operativo).", "foto_url": null },
    { "nombre": "Edificio Las Tunitas", "lat": 10.6020, "lng": -66.9908, "direccion": "Las Tunitas, Maiquetia", "estado": "dano_grave", "atrapados_estimados": 0, "descripcion": "Grietas estructurales severas tras el sismo. Declarado inhabitable, en evacuacion.", "foto_url": null },
    { "nombre": "Residencias Macuto Centro", "lat": 10.6086, "lng": -66.8881, "direccion": "Casco central de Macuto", "estado": "atrapados", "atrapados_estimados": 4, "descripcion": "Estacionamiento subterraneo con personas atrapadas, acceso obstruido por escombros.", "foto_url": null }
  ]
}
